{"events_within": ["initial_config", "takeoff", "sort_locations", "takeoff_ended", "has_next", "yes_next", "go_next", "sort_locations"], "attitude": {"yaw": 0.17313674092292786, "roll": 0.007439206819981337, "pitch": 0.13648805022239685}, "target": {"y": 5438008.23911845, "x": 322870.52179215587, "mutex": 1.0, "num_wp": 0.0}, "timestamp": 1601912482, "velocity": {"y": 23.22, "x": 4.46}, "target_dir": {"y": 14.161232273443602, "x": 26.55765673518181}, "position": {"y": 5438034.7967751855, "x": 322856.3605598824, "alt": 39.958, "zone": 19.0}, "altitude": 39.958, "nofly": [[[322796.16375333746, 5438250.825848085], [322678.1268212263, 5437956.05416451], [323075.4336759561, 5437889.640751129], [323001.00459137175, 5438272.032294986], [322796.16375333746, 5438250.825848085]]], "wind": {"speed_z": 0.0, "direction": 16.148731231689453, "speed": 1.8658108711242676}}
{"events_within": [], "attitude": {"yaw": 0.17313674092292786, "roll": 0.007439206819981337, "pitch": 0.13648805022239685}, "target": {"y": 5438008.23911845, "x": 322870.52179215587, "mutex": 1.0, "num_wp": 0.0}, "timestamp": 1601912482, "velocity": {"y": 23.22, "x": 4.46}, "target_dir": {"y": 14.161232273443602, "x": 26.55765673518181}, "position": {"y": 5438034.7967751855, "x": 322856.3605598824, "alt": 39.958, "zone": 19.0}, "altitude": 39.958, "nofly": [[[322796.16375333746, 5438250.825848085], [322678.1268212263, 5437956.05416451], [323075.4336759561, 5437889.640751129], [323001.00459137175, 5438272.032294986], [322796.16375333746, 5438250.825848085]]], "wind": {"speed_z": 0.0, "direction": 16.148731231689453, "speed": 1.8658108711242676}}
{"events_within": [], "attitude": {"yaw": 0.16149266064167023, "roll": -0.13158294558525085, "pitch": 0.06372390687465668}, "target": {"y": 5438008.23911845, "x": 322870.52179215587, "mutex": 1.0, "num_wp": 0.0}, "timestamp": 1601912482, "velocity": {"y": 23.77, "x": 4.37}, "target_dir": {"y": 14.161232273443602, "x": 26.55765673518181}, "position": {"y": 5438047.914024658, "x": 322858.55107034865, "alt": 42.688, "zone": 19.0}, "altitude": 42.688, "nofly": [[[322796.16375333746, 5438250.825848085], [322678.1268212263, 5437956.05416451], [323075.4336759561, 5437889.640751129], [323001.00459137175, 5438272.032294986], [322796.16375333746, 5438250.825848085]]], "wind": {"speed_z": 0.0, "direction": 16.148731231689453, "speed": 1.8658108711242676}}
{"events_within": [], "attitude": {"yaw": 0.16149266064167023, "roll": -0.13158294558525085, "pitch": 0.06372390687465668}, "target": {"y": 5438008.23911845, "x": 322870.52179215587, "mutex": 1.0, "num_wp": 0.0}, "timestamp": 1601912482, "velocity": {"y": 23.77, "x": 4.37}, "target_dir": {"y": 14.161232273443602, "x": 26.55765673518181}, "position": {"y": 5438047.914024658, "x": 322858.55107034865, "alt": 42.688, "zone": 19.0}, "altitude": 42.688, "nofly": [[[322796.16375333746, 5438250.825848085], [322678.1268212263, 5437956.05416451], [323075.4336759561, 5437889.640751129], [323001.00459137175, 5438272.032294986], [322796.16375333746, 5438250.825848085]]], "wind": {"speed_z": 0.0, "direction": 16.591218948364258, "speed": 1.880706548690796}}
{"events_within": [], "attitude": {"yaw": 0.1702425479888916, "roll": -0.16701115667819977, "pitch": 0.05536281690001488}, "target": {"y": 5438008.23911845, "x": 322870.52179215587, "mutex": 1.0, "num_wp": 0.0}, "timestamp": 1601912482, "velocity": {"y": 23.84, "x": 4.04}, "target_dir": {"y": 14.161232273443602, "x": 26.55765673518181}, "position": {"y": 5438052.652885669, "x": 322859.2751392252, "alt": 43.44, "zone": 19.0}, "altitude": 43.44, "nofly": [[[322796.16375333746, 5438250.825848085], [322678.1268212263, 5437956.05416451], [323075.4336759561, 5437889.640751129], [323001.00459137175, 5438272.032294986], [322796.16375333746, 5438250.825848085]]], "wind": {"speed_z": 0.0, "direction": 16.591218948364258, "speed": 1.880706548690796}}
{"events_within": [], "attitude": {"yaw": 0.1702425479888916, "roll": -0.16701115667819977, "pitch": 0.05536281690001488}, "target": {"y": 5438008.23911845, "x": 322870.52179215587, "mutex": 1.0, "num_wp": 0.0}, "timestamp": 1601912482, "velocity": {"y": 23.84, "x": 4.04}, "target_dir": {"y": 14.161232273443602, "x": 26.55765673518181}, "position": {"y": 5438052.652885669, "x": 322859.2751392252, "alt": 43.44, "zone": 19.0}, "altitude": 43.44, "nofly": [[[322796.16375333746, 5438250.825848085], [322678.1268212263, 5437956.05416451], [323075.4336759561, 5437889.640751129], [323001.00459137175, 5438272.032294986], [322796.16375333746, 5438250.825848085]]], "wind": {"speed_z": 0.0, "direction": 16.88837432861328, "speed": 1.892228126525879}}
{"events_within": [], "attitude": {"yaw": 0.1702425479888916, "roll": -0.16701115667819977, "pitch": 0.05536281690001488}, "target": {"y": 5438008.23911845, "x": 322870.52179215587, "mutex": 1.0, "num_wp": 1.0}, "timestamp": 1601912482, "velocity": {"y": 23.84, "x": 4.04}, "target_dir": {"y": 14.161232273443602, "x": 26.55765673518181}, "position": {"y": 5438052.652885669, "x": 322859.2751392252, "alt": 43.44, "zone": 19.0}, "altitude": 43.44, "nofly": [[[322796.16375333746, 5438250.825848085], [322678.1268212263, 5437956.05416451], [323075.4336759561, 5437889.640751129], [323001.00459137175, 5438272.032294986], [322796.16375333746, 5438250.825848085]]], "wind": {"speed_z": 0.0, "direction": 16.88837432861328, "speed": 1.892228126525879}}
{"events_within": [], "attitude": {"yaw": 0.1676052063703537, "roll": -0.10290601849555969, "pitch": 0.05071267858147621}, "target": {"y": 5438008.23911845, "x": 322870.52179215587, "mutex": 1.0, "num_wp": 1.0}, "timestamp": 1601912482, "velocity": {"y": 23.78, "x": 3.91}, "target_dir": {"y": 14.161232273443602, "x": 26.55765673518181}, "position": {"y": 5438058.3829094805, "x": 322860.10101082723, "alt": 44.287, "zone": 19.0}, "altitude": 44.287, "nofly": [[[322796.16375333746, 5438250.825848085], [322678.1268212263, 5437956.05416451], [323075.4336759561, 5437889.640751129], [323001.00459137175, 5438272.032294986], [322796.16375333746, 5438250.825848085]]], "wind": {"speed_z": 0.0, "direction": 16.88837432861328, "speed": 1.892228126525879}}
{"events_within": [], "attitude": {"yaw": 0.16742002964019775, "roll": 0.008988788351416588, "pitch": 0.04925258830189705}, "target": {"y": 5438008.23911845, "x": 322870.52179215587, "mutex": 1.0, "num_wp": 1.0}, "timestamp": 1601912482, "velocity": {"y": 23.79, "x": 3.79}, "target_dir": {"y": 14.161232273443602, "x": 26.55765673518181}, "position": {"y": 5438058.3829094805, "x": 322860.10101082723, "alt": 45.164, "zone": 19.0}, "altitude": 45.164, "nofly": [[[322796.16375333746, 5438250.825848085], [322678.1268212263, 5437956.05416451], [323075.4336759561, 5437889.640751129], [323001.00459137175, 5438272.032294986], [322796.16375333746, 5438250.825848085]]], "wind": {"speed_z": 0.0, "direction": 16.88837432861328, "speed": 1.892228126525879}}
{"events_within": [], "attitude": {"yaw": 0.16742002964019775, "roll": 0.008988788351416588, "pitch": 0.04925258830189705}, "target": {"y": 5438008.23911845, "x": 322870.52179215587, "mutex": 1.0, "num_wp": 1.0}, "timestamp": 1601912482, "velocity": {"y": 23.79, "x": 3.79}, "target_dir": {"y": 14.161232273443602, "x": 26.55765673518181}, "position": {"y": 5438064.536043862, "x": 322860.9669576193, "alt": 45.164, "zone": 19.0}, "altitude": 45.164, "nofly": [[[322796.16375333746, 5438250.825848085], [322678.1268212263, 5437956.05416451], [323075.4336759561, 5437889.640751129], [323001.00459137175, 5438272.032294986], [322796.16375333746, 5438250.825848085]]], "wind": {"speed_z": 0.0, "direction": 16.98767852783203, "speed": 1.8991962671279907}}
{"events_within": [], "attitude": {"yaw": 0.16742002964019775, "roll": 0.008988788351416588, "pitch": 0.04925258830189705}, "target": {"y": 5438008.23911845, "x": 322870.52179215587, "mutex": 1.0, "num_wp": 1.0}, "timestamp": 1601912482, "velocity": {"y": 23.79, "x": 3.79}, "target_dir": {"y": 14.161232273443602, "x": 26.55765673518181}, "position": {"y": 5438064.536043862, "x": 322860.9669576193, "alt": 45.164, "zone": 19.0}, "altitude": 45.164, "nofly": [[[322796.16375333746, 5438250.825848085], [322678.1268212263, 5437956.05416451], [323075.4336759561, 5437889.640751129], [323001.00459137175, 5438272.032294986], [322796.16375333746, 5438250.825848085]]], "wind": {"speed_z": 0.0, "direction": 17.054811477661133, "speed": 1.9020949602127075}}
{"events_within": [], "attitude": {"yaw": 0.18850252032279968, "roll": 0.36402449011802673, "pitch": 0.04924868419766426}, "target": {"y": 5438008.23911845, "x": 322870.52179215587, "mutex": 1.0, "num_wp": 1.0}, "timestamp": 1601912482, "velocity": {"y": 23.76, "x": 4.73}, "target_dir": {"y": 14.161232273443602, "x": 26.55765673518181}, "position": {"y": 5438070.233778837, "x": 322861.8355756351, "alt": 45.99, "zone": 19.0}, "altitude": 45.99, "nofly": [[[322796.16375333746, 5438250.825848085], [322678.1268212263, 5437956.05416451], [323075.4336759561, 5437889.640751129], [323001.00459137175, 5438272.032294986], [322796.16375333746, 5438250.825848085]]], "wind": {"speed_z": 0.0, "direction": 17.054811477661133, "speed": 1.9020949602127075}}
{"events_within": [], "attitude": {"yaw": 0.1818120777606964, "roll": 0.39427152276039124, "pitch": 0.09566180408000946}, "target": {"y": 5438008.23911845, "x": 322870.52179215587, "mutex": 1.0, "num_wp": 1.0}, "timestamp": 1601912483, "velocity": {"y": 23.71, "x": 6.17}, "target_dir": {"y": 14.161232273443602, "x": 26.55765673518181}, "position": {"y": 5438076.374485949, "x": 322863.1046322796, "alt": 46.92, "zone": 19.0}, "altitude": 46.92, "nofly": [[[322796.16375333746, 5438250.825848085], [322678.1268212263, 5437956.05416451], [323075.4336759561, 5437889.640751129], [323001.00459137175, 5438272.032294986], [322796.16375333746, 5438250.825848085]]], "wind": {"speed_z": 0.0, "direction": 16.8132266998291, "speed": 1.914101481437683}}
{"events_within": [], "attitude": {"yaw": 0.1818120777606964, "roll": 0.39427152276039124, "pitch": 0.09566180408000946}, "target": {"y": 5438008.23911845, "x": 322870.52179215587, "mutex": 1.0, "num_wp": 1.0}, "timestamp": 1601912483, "velocity": {"y": 23.71, "x": 6.17}, "target_dir": {"y": 14.161232273443602, "x": 26.55765673518181}, "position": {"y": 5438076.374485949, "x": 322863.1046322796, "alt": 46.92, "zone": 19.0}, "altitude": 47.968, "nofly": [[[322796.16375333746, 5438250.825848085], [322678.1268212263, 5437956.05416451], [323075.4336759561, 5437889.640751129], [323001.00459137175, 5438272.032294986], [322796.16375333746, 5438250.825848085]]], "wind": {"speed_z": 0.0, "direction": 16.8132266998291, "speed": 1.914101481437683}}
{"events_within": [], "attitude": {"yaw": 0.21392689645290375, "roll": 0.21858501434326172, "pitch": 0.11693916469812393}, "target": {"y": 5438008.23911845, "x": 322870.52179215587, "mutex": 1.0, "num_wp": 1.0}, "timestamp": 1601912483, "velocity": {"y": 23.72, "x": 6.57}, "target_dir": {"y": 14.161232273443602, "x": 26.55765673518181}, "position": {"y": 5438082.073543979, "x": 322864.4851195577, "alt": 47.968, "zone": 19.0}, "altitude": 47.968, "nofly": [[[322796.16375333746, 5438250.825848085], [322678.1268212263, 5437956.05416451], [323075.4336759561, 5437889.640751129], [323001.00459137175, 5438272.032294986], [322796.16375333746, 5438250.825848085]]], "wind": {"speed_z": 0.0, "direction": 16.842058181762695, "speed": 1.9177740812301636}}
{"events_within": [], "attitude": {"yaw": 0.21392689645290375, "roll": 0.21858501434326172, "pitch": 0.11693916469812393}, "target": {"y": 5438008.23911845, "x": 322870.52179215587, "mutex": 1.0, "num_wp": 1.0}, "timestamp": 1601912483, "velocity": {"y": 23.72, "x": 6.57}, "target_dir": {"y": 14.161232273443602, "x": 26.55765673518181}, "position": {"y": 5438082.073543979, "x": 322864.4851195577, "alt": 47.968, "zone": 19.0}, "altitude": 47.968, "nofly": [[[322796.16375333746, 5438250.825848085], [322678.1268212263, 5437956.05416451], [323075.4336759561, 5437889.640751129], [323001.00459137175, 5438272.032294986], [322796.16375333746, 5438250.825848085]]], "wind": {"speed_z": 0.0, "direction": 17.34537696838379, "speed": 1.9254816770553589}}
{"events_within": [], "attitude": {"yaw": 0.25704821944236755, "roll": 0.2251284122467041, "pitch": 0.11567112803459167}, "target": {"y": 5438008.23911845, "x": 322870.52179215587, "mutex": 1.0, "num_wp": 1.0}, "timestamp": 1601912483, "velocity": {"y": 23.79, "x": 6.87}, "target_dir": {"y": 14.161232273443602, "x": 26.55765673518181}, "position": {"y": 5438088.24317715, "x": 322866.0304071264, "alt": 49.243, "zone": 19.0}, "altitude": 49.243, "nofly": [[[322796.16375333746, 5438250.825848085], [322678.1268212263, 5437956.05416451], [323075.4336759561, 5437889.640751129], [323001.00459137175, 5438272.032294986], [322796.16375333746, 5438250.825848085]]], "wind": {"speed_z": 0.0, "direction": 17.34537696838379, "speed": 1.9254816770553589}}
{"events_within": [], "attitude": {"yaw": 0.25704821944236755, "roll": 0.2251284122467041, "pitch": 0.11567112803459167}, "target": {"y": 5438008.23911845, "x": 322870.52179215587, "mutex": 1.0, "num_wp": 1.0}, "timestamp": 1601912483, "velocity": {"y": 23.79, "x": 6.87}, "target_dir": {"y": 14.161232273443602, "x": 26.55765673518181}, "position": {"y": 5438088.24317715, "x": 322866.0304071264, "alt": 49.243, "zone": 19.0}, "altitude": 49.243, "nofly": [[[322796.16375333746, 5438250.825848085], [322678.1268212263, 5437956.05416451], [323075.4336759561, 5437889.640751129], [323001.00459137175, 5438272.032294986], [322796.16375333746, 5438250.825848085]]], "wind": {"speed_z": 0.0, "direction": 18.024816513061523, "speed": 1.9365806579589844}}
{"events_within": [], "attitude": {"yaw": 0.27106502652168274, "roll": 0.29254767298698425, "pitch": 0.12563416361808777}, "target": {"y": 5438008.23911845, "x": 322870.52179215587, "mutex": 1.0, "num_wp": 1.0}, "timestamp": 1601912483, "velocity": {"y": 23.740000000000002, "x": 7.5600000000000005}, "target_dir": {"y": 14.161232273443602, "x": 26.55765673518181}, "position": {"y": 5438093.946919442, "x": 322867.6037967338, "alt": 50.45, "zone": 19.0}, "altitude": 50.45, "nofly": [[[322796.16375333746, 5438250.825848085], [322678.1268212263, 5437956.05416451], [323075.4336759561, 5437889.640751129], [323001.00459137175, 5438272.032294986], [322796.16375333746, 5438250.825848085]]], "wind": {"speed_z": 0.0, "direction": 19.14754867553711, "speed": 1.9488412141799927}}
{"events_within": [], "attitude": {"yaw": 0.3335126042366028, "roll": 0.23173825442790985, "pitch": 0.1618652492761612}, "target": {"y": 5438008.23911845, "x": 322870.52179215587, "mutex": 1.0, "num_wp": 2.0}, "timestamp": 1601912483, "velocity": {"y": 23.25, "x": 8.96}, "target_dir": {"y": 14.161232273443602, "x": 26.55765673518181}, "position": {"y": 5438111.9082326, "x": 322873.4781878132, "alt": 54.732, "zone": 19.0}, "altitude": 54.732, "nofly": [[[322796.16375333746, 5438250.825848085], [322678.1268212263, 5437956.05416451], [323075.4336759561, 5437889.640751129], [323001.00459137175, 5438272.032294986], [322796.16375333746, 5438250.825848085]]], "wind": {"speed_z": 0.0, "direction": 24.822189331054688, "speed": 2.013998508453369}}
{"events_within": [], "attitude": {"yaw": 0.47679033875465393, "roll": 0.8890963196754456, "pitch": 0.21272818744182587}, "target": {"y": 5438008.23911845, "x": 322870.52179215587, "mutex": 1.0, "num_wp": 2.0}, "timestamp": 1601912483, "velocity": {"y": 21.330000000000002, "x": 13.21}, "target_dir": {"y": 14.161232273443602, "x": 26.55765673518181}, "position": {"y": 5438128.690141917, "x": 322880.6484180927, "alt": 59.258, "zone": 19.0}, "altitude": 59.258, "nofly": [[[322796.16375333746, 5438250.825848085], [322678.1268212263, 5437956.05416451], [323075.4336759561, 5437889.640751129], [323001.00459137175, 5438272.032294986], [322796.16375333746, 5438250.825848085]]], "wind": {"speed_z": 0.0, "direction": 28.83917808532715, "speed": 2.067681074142456}}
{"events_within": [], "attitude": {"yaw": 0.6831240057945251, "roll": 0.6405964493751526, "pitch": 0.20676036179065704}, "target": {"y": 5438008.23911845, "x": 322870.52179215587, "mutex": 1.0, "num_wp": 2.0}, "timestamp": 1601912483, "velocity": {"y": 18.400000000000002, "x": 16.73}, "target_dir": {"y": 14.161232273443602, "x": 26.55765673518181}, "position": {"y": 5438143.684649209, "x": 322891.982479963, "alt": 64.795, "zone": 19.0}, "altitude": 64.795, "nofly": [[[322796.16375333746, 5438250.825848085], [322678.1268212263, 5437956.05416451], [323075.4336759561, 5437889.640751129], [323001.00459137175, 5438272.032294986], [322796.16375333746, 5438250.825848085]]], "wind": {"speed_z": 0.0, "direction": 31.30790901184082, "speed": 2.1015701293945312}}
{"events_within": [], "attitude": {"yaw": 0.8278421759605408, "roll": 0.6120173335075378, "pitch": 0.20211261510849}, "target": {"y": 5438008.23911845, "x": 322870.52179215587, "mutex": 1.0, "num_wp": 2.0}, "timestamp": 1601912484, "velocity": {"y": 15.47, "x": 19.01}, "target_dir": {"y": 14.161232273443602, "x": 26.55765673518181}, "position": {"y": 5438156.4531601425, "x": 322904.97348455014, "alt": 69.753, "zone": 19.0}, "altitude": 69.753, "nofly": [[[322796.16375333746, 5438250.825848085], [322678.1268212263, 5437956.05416451], [323075.4336759561, 5437889.640751129], [323001.00459137175, 5438272.032294986], [322796.16375333746, 5438250.825848085]]], "wind": {"speed_z": 0.0, "direction": 33.96683883666992, "speed": 2.139432668685913}}
{"events_within": [], "attitude": {"yaw": 0.9570377469062805, "roll": 0.5802993178367615, "pitch": 0.1719827800989151}, "target": {"y": 5438008.23911845, "x": 322870.52179215587, "mutex": 1.0, "num_wp": 3.0}, "timestamp": 1601912484, "velocity": {"y": 12.81, "x": 20.56}, "target_dir": {"y": 14.161232273443602, "x": 26.55765673518181}, "position": {"y": 5438167.455952387, "x": 322919.82004782767, "alt": 74.402, "zone": 19.0}, "altitude": 74.402, "nofly": [[[322796.16375333746, 5438250.825848085], [322678.1268212263, 5437956.05416451], [323075.4336759561, 5437889.640751129], [323001.00459137175, 5438272.032294986], [322796.16375333746, 5438250.825848085]]], "wind": {"speed_z": 0.0, "direction": 37.73513412475586, "speed": 2.198878049850464}}
{"events_within": [], "attitude": {"yaw": 1.2223448753356934, "roll": 0.8615971803665161, "pitch": 0.22066736221313477}, "target": {"y": 5438008.23911845, "x": 322870.52179215587, "mutex": 1.0, "num_wp": 3.0}, "timestamp": 1601912484, "velocity": {"y": 6.58, "x": 23.57}, "target_dir": {"y": 14.161232273443602, "x": 26.55765673518181}, "position": {"y": 5438175.42236619, "x": 322935.89005734504, "alt": 78.414, "zone": 19.0}, "altitude": 78.414, "nofly": [[[322796.16375333746, 5438250.825848085], [322678.1268212263, 5437956.05416451], [323075.4336759561, 5437889.640751129], [323001.00459137175, 5438272.032294986], [322796.16375333746, 5438250.825848085]]], "wind": {"speed_z": 0.0, "direction": 39.144351959228516, "speed": 2.221436023712158}}
{"events_within": [], "attitude": {"yaw": 1.436874508857727, "roll": 0.7889271974563599, "pitch": 0.18941164016723633}, "target": {"y": 5438008.23911845, "x": 322870.52179215587, "mutex": 1.0, "num_wp": 3.0}, "timestamp": 1601912484, "velocity": {"y": 1.57, "x": 24.150000000000002}, "target_dir": {"y": 14.161232273443602, "x": 26.55765673518181}, "position": {"y": 5438178.818835146, "x": 322954.0766940516, "alt": 83.09, "zone": 19.0}, "altitude": 83.09, "nofly": [[[322796.16375333746, 5438250.825848085], [322678.1268212263, 5437956.05416451], [323075.4336759561, 5437889.640751129], [323001.00459137175, 5438272.032294986], [322796.16375333746, 5438250.825848085]]], "wind": {"speed_z": 0.0, "direction": 39.37428665161133, "speed": 2.223940849304199}}
{"events_within": [], "attitude": {"yaw": 1.6204833984375, "roll": 0.7415361404418945, "pitch": 0.1650930941104889}, "target": {"y": 5438008.23911845, "x": 322870.52179215587, "mutex": 1.0, "num_wp": 3.0}, "timestamp": 1601912484, "velocity": {"y": -2.81, "x": 23.66}, "target_dir": {"y": 14.161232273443602, "x": 26.55765673518181}, "position": {"y": 5438178.739728666, "x": 322971.86936986685, "alt": 87.044, "zone": 19.0}, "altitude": 87.044, "nofly": [[[322796.16375333746, 5438250.825848085], [322678.1268212263, 5437956.05416451], [323075.4336759561, 5437889.640751129], [323001.00459137175, 5438272.032294986], [322796.16375333746, 5438250.825848085]]], "wind": {"speed_z": 0.0, "direction": 44.91986083984375, "speed": 2.316300868988037}}
{"events_within": [], "attitude": {"yaw": 1.7906467914581299, "roll": 0.6702545881271362, "pitch": 0.13510796427726746}, "target": {"y": 5438008.23911845, "x": 322870.52179215587, "mutex": 1.0, "num_wp": 3.0}, "timestamp": 1601912485, "velocity": {"y": -6.7, "x": 22.54}, "target_dir": {"y": 14.161232273443602, "x": 26.55765673518181}, "position": {"y": 5438175.437443803, "x": 322989.5976082402, "alt": 90.601, "zone": 19.0}, "altitude": 90.601, "nofly": [[[322796.16375333746, 5438250.825848085], [322678.1268212263, 5437956.05416451], [323075.4336759561, 5437889.640751129], [323001.00459137175, 5438272.032294986], [322796.16375333746, 5438250.825848085]]], "wind": {"speed_z": 0.0, "direction": 49.11769104003906, "speed": 2.3971097469329834}}
{"events_within": [], "attitude": {"yaw": 1.9498729705810547, "roll": 0.6870571970939636, "pitch": 0.09582722187042236}, "target": {"y": 5438008.23911845, "x": 322870.52179215587, "mutex": 1.0, "num_wp": 4.0}, "timestamp": 1601912485, "velocity": {"y": -9.700000000000001, "x": 21.16}, "target_dir": {"y": 14.161232273443602, "x": 26.55765673518181}, "position": {"y": 5438169.668902427, "x": 323005.95067202277, "alt": 93.562, "zone": 19.0}, "altitude": 93.562, "nofly": [[[322796.16375333746, 5438250.825848085], [322678.1268212263, 5437956.05416451], [323075.4336759561, 5437889.640751129], [323001.00459137175, 5438272.032294986], [322796.16375333746, 5438250.825848085]]], "wind": {"speed_z": 0.0, "direction": 53.35409927368164, "speed": 2.488121509552002}}
{"events_within": [], "attitude": {"yaw": 2.260504722595215, "roll": 0.7869013547897339, "pitch": 0.17113570868968964}, "target": {"y": 5438008.23911845, "x": 322870.52179215587, "mutex": 1.0, "num_wp": 4.0}, "timestamp": 1601912485, "velocity": {"y": -16.44, "x": 16.990000000000002}, "target_dir": {"y": 14.161232273443602, "x": 26.55765673518181}, "position": {"y": 5438160.18922899, "x": 323020.9000147936, "alt": 96.352, "zone": 19.0}, "altitude": 96.352, "nofly": [[[322796.16375333746, 5438250.825848085], [322678.1268212263, 5437956.05416451], [323075.4336759561, 5437889.640751129], [323001.00459137175, 5438272.032294986], [322796.16375333746, 5438250.825848085]]], "wind": {"speed_z": 0.0, "direction": 56.923213958740234, "speed": 2.5683035850524902}}
{"events_within": [], "attitude": {"yaw": 2.4437918663024902, "roll": 0.7502853274345398, "pitch": 0.12652651965618134}, "target": {"y": 5438008.23911845, "x": 322870.52179215587, "mutex": 1.0, "num_wp": 4.0}, "timestamp": 1601912485, "velocity": {"y": -19.01, "x": 13.75}, "target_dir": {"y": 14.161232273443602, "x": 26.55765673518181}, "position": {"y": 5438147.398771949, "x": 323032.63166481326, "alt": 99.581, "zone": 19.0}, "altitude": 99.581, "nofly": [[[322796.16375333746, 5438250.825848085], [322678.1268212263, 5437956.05416451], [323075.4336759561, 5437889.640751129], [323001.00459137175, 5438272.032294986], [322796.16375333746, 5438250.825848085]]], "wind": {"speed_z": 0.0, "direction": 61.18577575683594, "speed": 2.649247169494629}}
{"events_within": [], "attitude": {"yaw": 2.627061367034912, "roll": 0.6646038293838501, "pitch": 0.10643245279788971}, "target": {"y": 5438008.23911845, "x": 322870.52179215587, "mutex": 1.0, "num_wp": 4.0}, "timestamp": 1601912485, "velocity": {"y": -20.98, "x": 10.0}, "target_dir": {"y": 14.161232273443602, "x": 26.55765673518181}, "position": {"y": 5438132.394414909, "x": 323041.94140806934, "alt": 102.412, "zone": 19.0}, "altitude": 102.412, "nofly": [[[322796.16375333746, 5438250.825848085], [322678.1268212263, 5437956.05416451], [323075.4336759561, 5437889.640751129], [323001.00459137175, 5438272.032294986], [322796.16375333746, 5438250.825848085]]], "wind": {"speed_z": 0.0, "direction": 66.0020751953125, "speed": 2.7350013256073}}
{"events_within": [], "attitude": {"yaw": 2.7769203186035156, "roll": 0.5587683916091919, "pitch": 0.08644186705350876}, "target": {"y": 5438008.23911845, "x": 322870.52179215587, "mutex": 1.0, "num_wp": 4.0}, "timestamp": 1601912486, "velocity": {"y": -22.01, "x": 6.76}, "target_dir": {"y": 14.161232273443602, "x": 26.55765673518181}, "position": {"y": 5438116.664806409, "x": 323048.3735446949, "alt": 104.924, "zone": 19.0}, "altitude": 104.924, "nofly": [[[322796.16375333746, 5438250.825848085], [322678.1268212263, 5437956.05416451], [323075.4336759561, 5437889.640751129], [323001.00459137175, 5438272.032294986], [322796.16375333746, 5438250.825848085]]], "wind": {"speed_z": 0.0, "direction": 70.65953826904297, "speed": 2.8068933486938477}}
{"events_within": [], "attitude": {"yaw": 2.8872742652893066, "roll": 0.5217419862747192, "pitch": 0.004117535427212715}, "target": {"y": 5438008.23911845, "x": 322870.52179215587, "mutex": 1.0, "num_wp": 5.0}, "timestamp": 1601912486, "velocity": {"y": -21.830000000000002, "x": 4.63}, "target_dir": {"y": 14.161232273443602, "x": 26.55765673518181}, "position": {"y": 5438100.088210088, "x": 323052.86253213277, "alt": 106.937, "zone": 19.0}, "altitude": 106.937, "nofly": [[[322796.16375333746, 5438250.825848085], [322678.1268212263, 5437956.05416451], [323075.4336759561, 5437889.640751129], [323001.00459137175, 5438272.032294986], [322796.16375333746, 5438250.825848085]]], "wind": {"speed_z": 0.0, "direction": 74.77679443359375, "speed": 2.8616256713867188}}
{"events_within": [], "attitude": {"yaw": 3.1051571369171143, "roll": 0.7225338220596313, "pitch": 0.03231256827712059}, "target": {"y": 5438008.23911845, "x": 322870.52179215587, "mutex": 1.0, "num_wp": 5.0}, "timestamp": 1601912486, "velocity": {"y": -21.91, "x": -1.1}, "target_dir": {"y": 14.161232273443602, "x": 26.55765673518181}, "position": {"y": 5438084.112840217, "x": 323054.6599473125, "alt": 107.587, "zone": 19.0}, "altitude": 107.587, "nofly": [[[322796.16375333746, 5438250.825848085], [322678.1268212263, 5437956.05416451], [323075.4336759561, 5437889.640751129], [323001.00459137175, 5438272.032294986], [322796.16375333746, 5438250.825848085]]], "wind": {"speed_z": 0.0, "direction": 78.93333435058594, "speed": 2.9055075645446777}}
{"events_within": [], "attitude": {"yaw": -3.031148672103882, "roll": 0.6925281286239624, "pitch": -0.07556692510843277}, "target": {"y": 5438008.23911845, "x": 322870.52179215587, "mutex": 1.0, "num_wp": 5.0}, "timestamp": 1601912486, "velocity": {"y": -20.77, "x": -3.87}, "target_dir": {"y": 14.161232273443602, "x": 26.55765673518181}, "position": {"y": 5438068.001175151, "x": 323053.12914733327, "alt": 107.741, "zone": 19.0}, "altitude": 107.741, "nofly": [[[322796.16375333746, 5438250.825848085], [322678.1268212263, 5437956.05416451], [323075.4336759561, 5437889.640751129], [323001.00459137175, 5438272.032294986], [322796.16375333746, 5438250.825848085]]], "wind": {"speed_z": 0.0, "direction": 81.59208679199219, "speed": 2.898939847946167}}
{"events_within": [], "attitude": {"yaw": -2.8700170516967773, "roll": 0.6066595911979675, "pitch": -0.1236841008067131}, "target": {"y": 5438008.23911845, "x": 322870.52179215587, "mutex": 1.0, "num_wp": 5.0}, "timestamp": 1601912486, "velocity": {"y": -19.38, "x": -6.890000000000001}, "target_dir": {"y": 14.161232273443602, "x": 26.55765673518181}, "position": {"y": 5438053.2235789625, "x": 323049.3505760949, "alt": 106.759, "zone": 19.0}, "altitude": 106.759, "nofly": [[[322796.16375333746, 5438250.825848085], [322678.1268212263, 5437956.05416451], [323075.4336759561, 5437889.640751129], [323001.00459137175, 5438272.032294986], [322796.16375333746, 5438250.825848085]]], "wind": {"speed_z": 0.0, "direction": 87.42571258544922, "speed": 2.8471457958221436}}
{"events_within": [], "attitude": {"yaw": -2.725691318511963, "roll": 0.5076107382774353, "pitch": -0.1661091148853302}, "target": {"y": 5438008.23911845, "x": 322870.52179215587, "mutex": 1.0, "num_wp": 5.0}, "timestamp": 1601912487, "velocity": {"y": -18.07, "x": -9.43}, "target_dir": {"y": 14.161232273443602, "x": 26.55765673518181}, "position": {"y": 5438039.148232692, "x": 323043.38153328263, "alt": 105.047, "zone": 19.0}, "altitude": 105.047, "nofly": [[[322796.16375333746, 5438250.825848085], [322678.1268212263, 5437956.05416451], [323075.4336759561, 5437889.640751129], [323001.00459137175, 5438272.032294986], [322796.16375333746, 5438250.825848085]]], "wind": {"speed_z": 0.0, "direction": 90.3677749633789, "speed": 2.7971878051757812}}
{"events_within": [], "attitude": {"yaw": -2.605700731277466, "roll": 0.3926517367362976, "pitch": -0.1848602443933487}, "target": {"y": 5438008.23911845, "x": 322870.52179215587, "mutex": 1.0, "num_wp": 6.0}, "timestamp": 1601912487, "velocity": {"y": -16.93, "x": -11.450000000000001}, "target_dir": {"y": 14.161232273443602, "x": 26.55765673518181}, "position": {"y": 5438026.3241194775, "x": 323035.87165082933, "alt": 102.934, "zone": 19.0}, "altitude": 102.934, "nofly": [[[322796.16375333746, 5438250.825848085], [322678.1268212263, 5437956.05416451], [323075.4336759561, 5437889.640751129], [323001.00459137175, 5438272.032294986], [322796.16375333746, 5438250.825848085]]], "wind": {"speed_z": 0.0, "direction": 94.49658966064453, "speed": 2.6994237899780273}}
{"events_within": [], "attitude": {"yaw": -2.471419334411621, "roll": 0.7702059149742126, "pitch": -0.1806487888097763}, "target": {"y": 5438008.23911845, "x": 322870.52179215587, "mutex": 1.0, "num_wp": 6.0}, "timestamp": 1601912487, "velocity": {"y": -15.4, "x": -13.65}, "target_dir": {"y": 14.161232273443602, "x": 26.55765673518181}, "position": {"y": 5438018.169964283, "x": 323029.9100245009, "alt": 101.383, "zone": 19.0}, "altitude": 101.383, "nofly": [[[322796.16375333746, 5438250.825848085], [322678.1268212263, 5437956.05416451], [323075.4336759561, 5437889.640751129], [323001.00459137175, 5438272.032294986], [322796.16375333746, 5438250.825848085]]], "wind": {"speed_z": 0.0, "direction": 99.1380615234375, "speed": 2.5581414699554443}}
{"events_within": [], "attitude": {"yaw": -2.1887481212615967, "roll": 0.5815050601959229, "pitch": -0.12154120206832886}, "target": {"y": 5438008.23911845, "x": 322870.52179215587, "mutex": 1.0, "num_wp": 6.0}, "timestamp": 1601912487, "velocity": {"y": -11.15, "x": -18.01}, "target_dir": {"y": 14.161232273443602, "x": 26.55765673518181}, "position": {"y": 5438005.095048637, "x": 323013.8971307323, "alt": 99.223, "zone": 19.0}, "altitude": 99.223, "nofly": [[[322796.16375333746, 5438250.825848085], [322678.1268212263, 5437956.05416451], [323075.4336759561, 5437889.640751129], [323001.00459137175, 5438272.032294986], [322796.16375333746, 5438250.825848085]]], "wind": {"speed_z": 0.0, "direction": 106.00108337402344, "speed": 2.250777006149292}}
{"events_within": [], "attitude": {"yaw": -2.0359702110290527, "roll": 0.4696027636528015, "pitch": -0.11916136741638184}, "target": {"y": 5438008.23911845, "x": 322870.52179215587, "mutex": 1.0, "num_wp": 6.0}, "timestamp": 1601912487, "velocity": {"y": -8.38, "x": -19.56}, "target_dir": {"y": 14.161232273443602, "x": 26.55765673518181}, "position": {"y": 5437997.69884641, "x": 322999.8024220406, "alt": 97.845, "zone": 19.0}, "altitude": 97.845, "nofly": [[[322796.16375333746, 5438250.825848085], [322678.1268212263, 5437956.05416451], [323075.4336759561, 5437889.640751129], [323001.00459137175, 5438272.032294986], [322796.16375333746, 5438250.825848085]]], "wind": {"speed_z": 0.0, "direction": 111.20475769042969, "speed": 1.9965945482254028}}
{"events_within": [], "attitude": {"yaw": -1.918680191040039, "roll": 0.37312477827072144, "pitch": -0.12054811418056488}, "target": {"y": 5438008.23911845, "x": 322870.52179215587, "mutex": 1.0, "num_wp": 6.0}, "timestamp": 1601912488, "velocity": {"y": -6.2, "x": -20.57}, "target_dir": {"y": 14.161232273443602, "x": 26.55765673518181}, "position": {"y": 5437992.290449764, "x": 322985.2231255978, "alt": 96.537, "zone": 19.0}, "altitude": 96.537, "nofly": [[[322796.16375333746, 5438250.825848085], [322678.1268212263, 5437956.05416451], [323075.4336759561, 5437889.640751129], [323001.00459137175, 5438272.032294986], [322796.16375333746, 5438250.825848085]]], "wind": {"speed_z": 0.0, "direction": 117.30491638183594, "speed": 1.7166370153427124}}
{"events_within": [], "attitude": {"yaw": -1.8149861097335815, "roll": 0.3230586349964142, "pitch": -0.11750862747430801}, "target": {"y": 5438008.23911845, "x": 322870.52179215587, "mutex": 1.0, "num_wp": 7.0}, "timestamp": 1601912488, "velocity": {"y": -4.59, "x": -21.17}, "target_dir": {"y": 14.161232273443602, "x": 26.55765673518181}, "position": {"y": 5437988.156972884, "x": 322969.6226863521, "alt": 95.34700000000001, "zone": 19.0}, "altitude": 95.34700000000001, "nofly": [[[322796.16375333746, 5438250.825848085], [322678.1268212263, 5437956.05416451], [323075.4336759561, 5437889.640751129], [323001.00459137175, 5438272.032294986], [322796.16375333746, 5438250.825848085]]], "wind": {"speed_z": 0.0, "direction": 123.72984313964844, "speed": 1.4703744649887085}}
{"events_within": [], "attitude": {"yaw": -1.661844253540039, "roll": 0.45784541964530945, "pitch": -0.04155172035098076}, "target": {"y": 5438008.23911845, "x": 322870.52179215587, "mutex": 1.0, "num_wp": 8.0}, "timestamp": 1601912488, "velocity": {"y": -0.24, "x": -22.05}, "target_dir": {"y": 14.161232273443602, "x": 26.55765673518181}, "position": {"y": 5437986.1970754145, "x": 322953.8687948794, "alt": 94.473, "zone": 19.0}, "altitude": 94.473, "nofly": [[[322796.16375333746, 5438250.825848085], [322678.1268212263, 5437956.05416451], [323075.4336759561, 5437889.640751129], [323001.00459137175, 5438272.032294986], [322796.16375333746, 5438250.825848085]]], "wind": {"speed_z": 0.0, "direction": 131.13873291015625, "speed": 1.240269660949707}}
{"events_within": [], "attitude": {"yaw": -1.5019453763961792, "roll": 0.30353686213493347, "pitch": -0.0502360537648201}, "target": {"y": 5438008.23911845, "x": 322870.52179215587, "mutex": 1.0, "num_wp": 9.0}, "timestamp": 1601912488, "velocity": {"y": 2.94, "x": -21.93}, "target_dir": {"y": 14.161232273443602, "x": 26.55765673518181}, "position": {"y": 5437987.126153586, "x": 322932.1957887393, "alt": 94.021, "zone": 19.0}, "altitude": 94.021, "nofly": [[[322796.16375333746, 5438250.825848085], [322678.1268212263, 5437956.05416451], [323075.4336759561, 5437889.640751129], [323001.00459137175, 5438272.032294986], [322796.16375333746, 5438250.825848085]]], "wind": {"speed_z": 0.0, "direction": 139.4542694091797, "speed": 1.0285518169403076}}
{"events_within": [], "attitude": {"yaw": -1.4205211400985718, "roll": 0.268699049949646, "pitch": -0.06873775273561478}, "target": {"y": 5438008.23911845, "x": 322870.52179215587, "mutex": 1.0, "num_wp": 9.0}, "timestamp": 1601912488, "velocity": {"y": 4.44, "x": -21.62}, "target_dir": {"y": 14.161232273443602, "x": 26.55765673518181}, "position": {"y": 5437989.585007653, "x": 322915.88145779446, "alt": 93.753, "zone": 19.0}, "altitude": 93.753, "nofly": [[[322796.16375333746, 5438250.825848085], [322678.1268212263, 5437956.05416451], [323075.4336759561, 5437889.640751129], [323001.00459137175, 5438272.032294986], [322796.16375333746, 5438250.825848085]]], "wind": {"speed_z": 0.0, "direction": 153.47853088378906, "speed": 0.7894055247306824}}
{"events_within": [], "attitude": {"yaw": -1.3736952543258667, "roll": -0.03078526072204113, "pitch": -0.06983458250761032}, "target": {"y": 5438008.23911845, "x": 322870.52179215587, "mutex": 1.0, "num_wp": 10.0}, "timestamp": 1601912489, "velocity": {"y": 4.7, "x": -21.580000000000002}, "target_dir": {"y": 14.161232273443602, "x": 26.55765673518181}, "position": {"y": 5437992.833819548, "x": 322900.07660395635, "alt": 93.54, "zone": 19.0}, "altitude": 93.54, "nofly": [[[322796.16375333746, 5438250.825848085], [322678.1268212263, 5437956.05416451], [323075.4336759561, 5437889.640751129], [323001.00459137175, 5438272.032294986], [322796.16375333746, 5438250.825848085]]], "wind": {"speed_z": 0.0, "direction": 168.73634338378906, "speed": 0.6467916369438171}}
{"events_within": ["arrived", "remove_next", "has_next", "yes_next", "go_next", "sort_locations"], "attitude": {"yaw": -1.376173973083496, "roll": 0.005725627765059471, "pitch": -0.06594400852918625}, "target": {"y": 5438006.782179947, "x": 322810.54625354265, "mutex": 1.0, "num_wp": 0.0}, "timestamp": 1601912489, "velocity": {"y": 4.89, "x": -21.51}, "target_dir": {"y": -59.975538613216486, "x": 1.4569385033100843}, "position": {"y": 5437995.019503798, "x": 322889.44164165406, "alt": 93.446, "zone": 19.0}, "altitude": 93.446, "nofly": [[[322796.16375333746, 5438250.825848085], [322678.1268212263, 5437956.05416451], [323075.4336759561, 5437889.640751129], [323001.00459137175, 5438272.032294986], [322796.16375333746, 5438250.825848085]]], "wind": {"speed_z": 0.0, "direction": 178.9669189453125, "speed": 0.5959505438804626}}
{"events_within": [], "attitude": {"yaw": -1.3648258447647095, "roll": 0.15121999382972717, "pitch": -0.06360439211130142}, "target": {"y": 5438006.782179947, "x": 322810.54625354265, "mutex": 1.0, "num_wp": 1.0}, "timestamp": 1601912489, "velocity": {"y": 4.91, "x": -21.66}, "target_dir": {"y": -59.975538613216486, "x": 1.4569385033100843}, "position": {"y": 5437999.197809047, "x": 322868.0001585694, "alt": 93.374, "zone": 19.0}, "altitude": 93.374, "nofly": [[[322796.16375333746, 5438250.825848085], [322678.1268212263, 5437956.05416451], [323075.4336759561, 5437889.640751129], [323001.00459137175, 5438272.032294986], [322796.16375333746, 5438250.825848085]]], "wind": {"speed_z": 0.0, "direction": -166.17677307128906, "speed": 0.5637553334236145}}
{"events_within": [], "attitude": {"yaw": -1.3832041025161743, "roll": -0.12654048204421997, "pitch": -0.036824241280555725}, "target": {"y": 5438006.782179947, "x": 322810.54625354265, "mutex": 1.0, "num_wp": 2.0}, "timestamp": 1601912489, "velocity": {"y": 3.79, "x": -21.89}, "target_dir": {"y": -59.975538613216486, "x": 1.4569385033100843}, "position": {"y": 5438002.187599448, "x": 322851.5973459983, "alt": 93.473, "zone": 19.0}, "altitude": 93.473, "nofly": [[[322796.16375333746, 5438250.825848085], [322678.1268212263, 5437956.05416451], [323075.4336759561, 5437889.640751129], [323001.00459137175, 5438272.032294986], [322796.16375333746, 5438250.825848085]]], "wind": {"speed_z": 0.0, "direction": -147.01283264160156, "speed": 0.5804972052574158}}
{"events_within": [], "attitude": {"yaw": -1.4335800409317017, "roll": -0.17359714210033417, "pitch": -0.04183833301067352}, "target": {"y": 5438006.782179947, "x": 322810.54625354265, "mutex": 1.0, "num_wp": 2.0}, "timestamp": 1601912489, "velocity": {"y": 3.18, "x": -22.02}, "target_dir": {"y": -59.975538613216486, "x": 1.4569385033100843}, "position": {"y": 5438004.506223373, "x": 322835.46257209417, "alt": 93.746, "zone": 19.0}, "altitude": 93.746, "nofly": [[[322796.16375333746, 5438250.825848085], [322678.1268212263, 5437956.05416451], [323075.4336759561, 5437889.640751129], [323001.00459137175, 5438272.032294986], [322796.16375333746, 5438250.825848085]]], "wind": {"speed_z": 0.0, "direction": -136.06240844726562, "speed": 0.6275948286056519}}
{"events_within": ["arrived", "remove_next", "has_next", "yes_next", "go_next", "sort_locations"], "attitude": {"yaw": -1.4734865427017212, "roll": -0.13754107058048248, "pitch": -0.04232312738895416}, "target": {"y": 5438005.324747702, "x": 322750.57071122515, "mutex": 1.0, "num_wp": 0.0}, "timestamp": 1601912490, "velocity": {"y": 2.5, "x": -22.11}, "target_dir": {"y": -59.97554231749382, "x": 1.4574322449043393}, "position": {"y": 5438006.233227755, "x": 322818.75474094506, "alt": 94.118, "zone": 19.0}, "altitude": 94.118, "nofly": [[[322796.16375333746, 5438250.825848085], [322678.1268212263, 5437956.05416451], [323075.4336759561, 5437889.640751129], [323001.00459137175, 5438272.032294986], [322796.16375333746, 5438250.825848085]]], "wind": {"speed_z": 0.0, "direction": -129.60812377929688, "speed": 0.6750279664993286}}
{"events_within": [], "attitude": {"yaw": -1.511520504951477, "roll": -0.15941566228866577, "pitch": -0.03480622544884682}, "target": {"y": 5438005.324747702, "x": 322750.57071122515, "mutex": 1.0, "num_wp": 2.0}, "timestamp": 1601912490, "velocity": {"y": 1.6400000000000001, "x": -22.11}, "target_dir": {"y": -59.97554231749382, "x": 1.4574322449043393}, "position": {"y": 5438007.7421792215, "x": 322796.7318689361, "alt": 94.639, "zone": 19.0}, "altitude": 94.639, "nofly": [[[322796.16375333746, 5438250.825848085], [322678.1268212263, 5437956.05416451], [323075.4336759561, 5437889.640751129], [323001.00459137175, 5438272.032294986], [322796.16375333746, 5438250.825848085]]], "wind": {"speed_z": 0.0, "direction": -123.2065658569336, "speed": 0.7446106672286987}}
{"events_within": [], "attitude": {"yaw": -1.5374022722244263, "roll": -0.09648516029119492, "pitch": -0.03760267794132233}, "target": {"y": 5438005.324747702, "x": 322750.57071122515, "mutex": 1.0, "num_wp": 2.0}, "timestamp": 1601912490, "velocity": {"y": 1.16, "x": -22.1}, "target_dir": {"y": -59.97554231749382, "x": 1.4574322449043393}, "position": {"y": 5438008.2905208785, "x": 322780.43867386086, "alt": 95.132, "zone": 19.0}, "altitude": 95.132, "nofly": [[[322796.16375333746, 5438250.825848085], [322678.1268212263, 5437956.05416451], [323075.4336759561, 5437889.640751129], [323001.00459137175, 5438272.032294986], [322796.16375333746, 5438250.825848085]]], "wind": {"speed_z": 0.0, "direction": -117.85224914550781, "speed": 0.8305348753929138}}
{"events_within": ["arrived", "remove_next", "has_next", "yes_next", "go_next", "sort_locations"], "attitude": {"yaw": -1.5468276739120483, "roll": -0.09160134196281433, "pitch": -0.03622587397694588}, "target": {"y": 5438062.403896828, "x": 322629.1604716972, "mutex": 1.0, "num_wp": 0.0}, "timestamp": 1601912490, "velocity": {"y": 0.72, "x": -22.09}, "target_dir": {"y": -121.4102395279333, "x": -57.07914912607521}, "position": {"y": 5438008.445217587, "x": 322769.4334120834, "alt": 95.44800000000001, "zone": 19.0}, "altitude": 95.44800000000001, "nofly": [[[322796.16375333746, 5438250.825848085], [322678.1268212263, 5437956.05416451], [323075.4336759561, 5437889.640751129], [323001.00459137175, 5438272.032294986], [322796.16375333746, 5438250.825848085]]], "wind": {"speed_z": 0.0, "direction": -115.88182830810547, "speed": 0.8720758557319641}}
{"events_within": [], "attitude": {"yaw": -1.5738180875778198, "roll": -0.06442117691040039, "pitch": -0.0447414331138134}, "target": {"y": 5438062.403896828, "x": 322629.1604716972, "mutex": 1.0, "num_wp": 1.0}, "timestamp": 1601912490, "velocity": {"y": 0.24, "x": -22.19}, "target_dir": {"y": -121.4102395279333, "x": -57.07914912607521}, "position": {"y": 5438008.333895691, "x": 322747.48345873813, "alt": 95.98100000000001, "zone": 19.0}, "altitude": 95.98100000000001, "nofly": [[[322796.16375333746, 5438250.825848085], [322678.1268212263, 5437956.05416451], [323075.4336759561, 5437889.640751129], [323001.00459137175, 5438272.032294986], [322796.16375333746, 5438250.825848085]]], "wind": {"speed_z": 0.0, "direction": -113.3743896484375, "speed": 0.9386362433433533}}
{"events_within": [], "attitude": {"yaw": -1.4692472219467163, "roll": 0.30608487129211426, "pitch": 0.005621942225843668}, "target": {"y": 5438062.403896828, "x": 322629.1604716972, "mutex": 1.0, "num_wp": 1.0}, "timestamp": 1601912491, "velocity": {"y": 3.69, "x": -22.07}, "target_dir": {"y": -121.4102395279333, "x": -57.07914912607521}, "position": {"y": 5438009.4421333065, "x": 322725.43672219454, "alt": 96.628, "zone": 19.0}, "altitude": 96.628, "nofly": [[[322796.16375333746, 5438250.825848085], [322678.1268212263, 5437956.05416451], [323075.4336759561, 5437889.640751129], [323001.00459137175, 5438272.032294986], [322796.16375333746, 5438250.825848085]]], "wind": {"speed_z": 0.0, "direction": -112.10507202148438, "speed": 0.9782599210739136}}
{"events_within": [], "attitude": {"yaw": -1.401341438293457, "roll": 0.4236294627189636, "pitch": -0.028234923258423805}, "target": {"y": 5438062.403896828, "x": 322629.1604716972, "mutex": 1.0, "num_wp": 1.0}, "timestamp": 1601912491, "velocity": {"y": 4.86, "x": -21.8}, "target_dir": {"y": -121.4102395279333, "x": -57.07914912607521}, "position": {"y": 5438011.14282554, "x": 322714.5113522587, "alt": 97.081, "zone": 19.0}, "altitude": 97.081, "nofly": [[[322796.16375333746, 5438250.825848085], [322678.1268212263, 5437956.05416451], [323075.4336759561, 5437889.640751129], [323001.00459137175, 5438272.032294986], [322796.16375333746, 5438250.825848085]]], "wind": {"speed_z": 0.0, "direction": -110.2906265258789, "speed": 1.0192605257034302}}
{"events_within": [], "attitude": {"yaw": -1.306533932685852, "roll": 0.32727184891700745, "pitch": -0.027992254123091698}, "target": {"y": 5438062.403896828, "x": 322629.1604716972, "mutex": 1.0, "num_wp": 1.0}, "timestamp": 1601912491, "velocity": {"y": 6.66, "x": -21.13}, "target_dir": {"y": -121.4102395279333, "x": -57.07914912607521}, "position": {"y": 5438015.15674664, "x": 322698.20939996943, "alt": 97.645, "zone": 19.0}, "altitude": 97.645, "nofly": [[[322796.16375333746, 5438250.825848085], [322678.1268212263, 5437956.05416451], [323075.4336759561, 5437889.640751129], [323001.00459137175, 5438272.032294986], [322796.16375333746, 5438250.825848085]]], "wind": {"speed_z": 0.0, "direction": -108.21278381347656, "speed": 1.0604099035263062}}
{"events_within": [], "attitude": {"yaw": -1.1943714618682861, "roll": 0.4027399718761444, "pitch": -0.040070541203022}, "target": {"y": 5438062.403896828, "x": 322629.1604716972, "mutex": 1.0, "num_wp": 2.0}, "timestamp": 1601912491, "velocity": {"y": 8.92, "x": -20.18}, "target_dir": {"y": -121.4102395279333, "x": -57.07914912607521}, "position": {"y": 5438022.395906476, "x": 322677.49049366254, "alt": 98.162, "zone": 19.0}, "altitude": 98.162, "nofly": [[[322796.16375333746, 5438250.825848085], [322678.1268212263, 5437956.05416451], [323075.4336759561, 5437889.640751129], [323001.00459137175, 5438272.032294986], [322796.16375333746, 5438250.825848085]]], "wind": {"speed_z": 0.0, "direction": -105.82695007324219, "speed": 1.1020042896270752}}
{"events_within": [], "attitude": {"yaw": -1.1077113151550293, "roll": 0.3062911331653595, "pitch": -0.03753906115889549}, "target": {"y": 5438062.403896828, "x": 322629.1604716972, "mutex": 1.0, "num_wp": 3.0}, "timestamp": 1601912491, "velocity": {"y": 10.59, "x": -19.32}, "target_dir": {"y": -121.4102395279333, "x": -57.07914912607521}, "position": {"y": 5438029.339179307, "x": 322662.87951945694, "alt": 98.496, "zone": 19.0}, "altitude": 98.496, "nofly": [[[322796.16375333746, 5438250.825848085], [322678.1268212263, 5437956.05416451], [323075.4336759561, 5437889.640751129], [323001.00459137175, 5438272.032294986], [322796.16375333746, 5438250.825848085]]], "wind": {"speed_z": 0.0, "direction": -102.75799560546875, "speed": 1.1490343809127808}}
{"events_within": [], "attitude": {"yaw": -1.0291846990585327, "roll": 0.3139316141605377, "pitch": -0.039167746901512146}, "target": {"y": 5438062.403896828, "x": 322629.1604716972, "mutex": 1.0, "num_wp": 3.0}, "timestamp": 1601912492, "velocity": {"y": 12.26, "x": -18.37}, "target_dir": {"y": -121.4102395279333, "x": -57.07914912607521}, "position": {"y": 5438037.675721905, "x": 322648.4612104626, "alt": 98.679, "zone": 19.0}, "altitude": 98.679, "nofly": [[[322796.16375333746, 5438250.825848085], [322678.1268212263, 5437956.05416451], [323075.4336759561, 5437889.640751129], [323001.00459137175, 5438272.032294986], [322796.16375333746, 5438250.825848085]]], "wind": {"speed_z": 0.0, "direction": -101.2217788696289, "speed": 1.1692438125610352}}
{"events_within": ["arrived", "remove_next", "has_next", "yes_next", "go_next", "sort_locations"], "attitude": {"yaw": -0.9768065214157104, "roll": 0.27026844024658203, "pitch": -0.04508255794644356}, "target": {"y": 5438126.7731425185, "x": 322807.6309452362, "mutex": 1.0, "num_wp": 0.0}, "timestamp": 1601912492, "velocity": {"y": 13.040000000000001, "x": -17.78}, "target_dir": {"y": 178.47047353896778, "x": -64.36924569029361}, "position": {"y": 5438043.786020905, "x": 322639.3418479537, "alt": 98.799, "zone": 19.0}, "altitude": 98.799, "nofly": [[[322796.16375333746, 5438250.825848085], [322678.1268212263, 5437956.05416451], [323075.4336759561, 5437889.640751129], [323001.00459137175, 5438272.032294986], [322796.16375333746, 5438250.825848085]]], "wind": {"speed_z": 0.0, "direction": -98.96680450439453, "speed": 1.1977207660675049}}
{"events_within": [], "attitude": {"yaw": -0.8868134021759033, "roll": 0.2704966366291046, "pitch": -0.04436873272061348}, "target": {"y": 5438126.7731425185, "x": 322807.6309452362, "mutex": 1.0, "num_wp": 0.0}, "timestamp": 1601912492, "velocity": {"y": 14.64, "x": -16.47}, "target_dir": {"y": 178.47047353896778, "x": -64.36924569029361}, "position": {"y": 5438057.172972219, "x": 322622.01458462776, "alt": 98.95400000000001, "zone": 19.0}, "altitude": 98.95400000000001, "nofly": [[[322796.16375333746, 5438250.825848085], [322678.1268212263, 5437956.05416451], [323075.4336759561, 5437889.640751129], [323001.00459137175, 5438272.032294986], [322796.16375333746, 5438250.825848085]]], "wind": {"speed_z": 0.0, "direction": -95.55950927734375, "speed": 1.2367565631866455}}
{"events_within": [], "attitude": {"yaw": -0.6984562873840332, "roll": 0.6390572786331177, "pitch": 0.033673740923404694}, "target": {"y": 5438126.7731425185, "x": 322807.6309452362, "mutex": 1.0, "num_wp": 0.0}, "timestamp": 1601912492, "velocity": {"y": 18.27, "x": -12.84}, "target_dir": {"y": 178.47047353896778, "x": -64.36924569029361}, "position": {"y": 5438068.771692846, "x": 322610.6385613156, "alt": 99.059, "zone": 19.0}, "altitude": 99.059, "nofly": [[[322796.16375333746, 5438250.825848085], [322678.1268212263, 5437956.05416451], [323075.4336759561, 5437889.640751129], [323001.00459137175, 5438272.032294986], [322796.16375333746, 5438250.825848085]]], "wind": {"speed_z": 0.0, "direction": -92.81548309326172, "speed": 1.265135407447815}}
{"events_within": [], "attitude": {"yaw": -0.47678184509277344, "roll": 0.625420868396759, "pitch": -0.01036619208753109}, "target": {"y": 5438126.7731425185, "x": 322807.6309452362, "mutex": 1.0, "num_wp": 1.0}, "timestamp": 1601912492, "velocity": {"y": 20.41, "x": -9.06}, "target_dir": {"y": 178.47047353896778, "x": -64.36924569029361}, "position": {"y": 5438087.632341774, "x": 322599.12781670113, "alt": 99.889, "zone": 19.0}, "altitude": 99.889, "nofly": [[[322796.16375333746, 5438250.825848085], [322678.1268212263, 5437956.05416451], [323075.4336759561, 5437889.640751129], [323001.00459137175, 5438272.032294986], [322796.16375333746, 5438250.825848085]]], "wind": {"speed_z": 0.0, "direction": -89.94052124023438, "speed": 1.2853872776031494}}
{"events_within": [], "attitude": {"yaw": -0.2545894980430603, "roll": 0.6887090802192688, "pitch": 0.019368350505828857}, "target": {"y": 5438126.7731425185, "x": 322807.6309452362, "mutex": 1.0, "num_wp": 1.0}, "timestamp": 1601912493, "velocity": {"y": 22.11, "x": -4.18}, "target_dir": {"y": 178.47047353896778, "x": -64.36924569029361}, "position": {"y": 5438103.595990498, "x": 322593.65406766057, "alt": 100.354, "zone": 19.0}, "altitude": 100.354, "nofly": [[[322796.16375333746, 5438250.825848085], [322678.1268212263, 5437956.05416451], [323075.4336759561, 5437889.640751129], [323001.00459137175, 5438272.032294986], [322796.16375333746, 5438250.825848085]]], "wind": {"speed_z": 0.0, "direction": -86.39047241210938, "speed": 1.303941011428833}}
{"events_within": [], "attitude": {"yaw": -0.13572899997234344, "roll": 0.650234043598175, "pitch": -0.0024211201816797256}, "target": {"y": 5438126.7731425185, "x": 322807.6309452362, "mutex": 1.0, "num_wp": 1.0}, "timestamp": 1601912493, "velocity": {"y": 22.32, "x": -1.67}, "target_dir": {"y": 178.47047353896778, "x": -64.36924569029361}, "position": {"y": 5438114.641639137, "x": 322591.96716046415, "alt": 100.803, "zone": 19.0}, "altitude": 100.803, "nofly": [[[322796.16375333746, 5438250.825848085], [322678.1268212263, 5437956.05416451], [323075.4336759561, 5437889.640751129], [323001.00459137175, 5438272.032294986], [322796.16375333746, 5438250.825848085]]], "wind": {"speed_z": 0.0, "direction": -82.47625732421875, "speed": 1.318921685218811}}
{"events_within": [], "attitude": {"yaw": 0.0775248110294342, "roll": 0.5637859106063843, "pitch": -0.025565123185515404}, "target": {"y": 5438126.7731425185, "x": 322807.6309452362, "mutex": 1.0, "num_wp": 1.0}, "timestamp": 1601912493, "velocity": {"y": 21.89, "x": 2.96}, "target_dir": {"y": 178.47047353896778, "x": -64.36924569029361}, "position": {"y": 5438136.700372219, "x": 322592.2781498899, "alt": 101.262, "zone": 19.0}, "altitude": 101.262, "nofly": [[[322796.16375333746, 5438250.825848085], [322678.1268212263, 5437956.05416451], [323075.4336759561, 5437889.640751129], [323001.00459137175, 5438272.032294986], [322796.16375333746, 5438250.825848085]]], "wind": {"speed_z": 0.0, "direction": -75.97615814208984, "speed": 1.337822437286377}}
{"events_within": [], "attitude": {"yaw": 0.20704030990600586, "roll": 0.47690263390541077, "pitch": -0.048476170748472214}, "target": {"y": 5438126.7731425185, "x": 322807.6309452362, "mutex": 1.0, "num_wp": 2.0}, "timestamp": 1601912493, "velocity": {"y": 21.22, "x": 5.66}, "target_dir": {"y": 178.47047353896778, "x": -64.36924569029361}, "position": {"y": 5438152.613900701, "x": 322595.24779802293, "alt": 101.33500000000001, "zone": 19.0}, "altitude": 101.33500000000001, "nofly": [[[322796.16375333746, 5438250.825848085], [322678.1268212263, 5437956.05416451], [323075.4336759561, 5437889.640751129], [323001.00459137175, 5438272.032294986], [322796.16375333746, 5438250.825848085]]], "wind": {"speed_z": 0.0, "direction": -70.72505187988281, "speed": 1.3526510000228882}}
{"events_within": [], "attitude": {"yaw": 0.4647257626056671, "roll": 0.7983275651931763, "pitch": -0.0078816507011652}, "target": {"y": 5438126.7731425185, "x": 322807.6309452362, "mutex": 1.0, "num_wp": 2.0}, "timestamp": 1601912493, "velocity": {"y": 19.1, "x": 11.43}, "target_dir": {"y": 178.47047353896778, "x": -64.36924569029361}, "position": {"y": 5438173.066398414, "x": 322602.59671776753, "alt": 100.921, "zone": 19.0}, "altitude": 100.921, "nofly": [[[322796.16375333746, 5438250.825848085], [322678.1268212263, 5437956.05416451], [323075.4336759561, 5437889.640751129], [323001.00459137175, 5438272.032294986], [322796.16375333746, 5438250.825848085]]], "wind": {"speed_z": 0.0, "direction": -66.05133056640625, "speed": 1.367397427558899}}
{"events_within": [], "attitude": {"yaw": 0.6776231527328491, "roll": 0.6587617993354797, "pitch": -0.025317780673503876}, "target": {"y": 5438126.7731425185, "x": 322807.6309452362, "mutex": 1.0, "num_wp": 2.0}, "timestamp": 1601912494, "velocity": {"y": 16.51, "x": 14.98}, "target_dir": {"y": 178.47047353896778, "x": -64.36924569029361}, "position": {"y": 5438186.617494675, "x": 322612.5723701224, "alt": 101.296, "zone": 19.0}, "altitude": 101.296, "nofly": [[[322796.16375333746, 5438250.825848085], [322678.1268212263, 5437956.05416451], [323075.4336759561, 5437889.640751129], [323001.00459137175, 5438272.032294986], [322796.16375333746, 5438250.825848085]]], "wind": {"speed_z": 0.0, "direction": -59.39307403564453, "speed": 1.378688097000122}}
{"events_within": [], "attitude": {"yaw": 0.8395649790763855, "roll": 0.5824306607246399, "pitch": -0.03726038336753845}, "target": {"y": 5438126.7731425185, "x": 322807.6309452362, "mutex": 1.0, "num_wp": 2.0}, "timestamp": 1601912494, "velocity": {"y": 13.84, "x": 17.37}, "target_dir": {"y": 178.47047353896778, "x": -64.36924569029361}, "position": {"y": 5438197.935432969, "x": 322624.364675177, "alt": 101.385, "zone": 19.0}, "altitude": 101.385, "nofly": [[[322796.16375333746, 5438250.825848085], [322678.1268212263, 5437956.05416451], [323075.4336759561, 5437889.640751129], [323001.00459137175, 5438272.032294986], [322796.16375333746, 5438250.825848085]]], "wind": {"speed_z": 0.0, "direction": -56.20645523071289, "speed": 1.3781914710998535}}
{"events_within": [], "attitude": {"yaw": 0.9807717800140381, "roll": 0.4979565441608429, "pitch": -0.057433873414993286}, "target": {"y": 5438126.7731425185, "x": 322807.6309452362, "mutex": 1.0, "num_wp": 2.0}, "timestamp": 1601912494, "velocity": {"y": 11.290000000000001, "x": 19.05}, "target_dir": {"y": 178.47047353896778, "x": -64.36924569029361}, "position": {"y": 5438207.5428300025, "x": 322637.99448751565, "alt": 101.277, "zone": 19.0}, "altitude": 101.277, "nofly": [[[322796.16375333746, 5438250.825848085], [322678.1268212263, 5437956.05416451], [323075.4336759561, 5437889.640751129], [323001.00459137175, 5438272.032294986], [322796.16375333746, 5438250.825848085]]], "wind": {"speed_z": 0.0, "direction": -51.25246047973633, "speed": 1.3737835884094238}}
{"events_within": [], "attitude": {"yaw": 1.1139705181121826, "roll": 0.5206393599510193, "pitch": -0.08456055819988251}, "target": {"y": 5438126.7731425185, "x": 322807.6309452362, "mutex": 1.0, "num_wp": 3.0}, "timestamp": 1601912494, "velocity": {"y": 9.200000000000001, "x": 20.1}, "target_dir": {"y": 178.47047353896778, "x": -64.36924569029361}, "position": {"y": 5438215.189281307, "x": 322652.3014131917, "alt": 100.96600000000001, "zone": 19.0}, "altitude": 100.96600000000001, "nofly": [[[322796.16375333746, 5438250.825848085], [322678.1268212263, 5437956.05416451], [323075.4336759561, 5437889.640751129], [323001.00459137175, 5438272.032294986], [322796.16375333746, 5438250.825848085]]], "wind": {"speed_z": 0.0, "direction": -46.915199279785156, "speed": 1.3655142784118652}}
{"events_within": [], "attitude": {"yaw": 1.3776735067367554, "roll": 0.6487305164337158, "pitch": 0.00784344132989645}, "target": {"y": 5438126.7731425185, "x": 322807.6309452362, "mutex": 1.0, "num_wp": 3.0}, "timestamp": 1601912494, "velocity": {"y": 2.8000000000000003, "x": 22.47}, "target_dir": {"y": 178.47047353896778, "x": -64.36924569029361}, "position": {"y": 5438220.067598981, "x": 322668.35406078876, "alt": 100.62, "zone": 19.0}, "altitude": 100.62, "nofly": [[[322796.16375333746, 5438250.825848085], [322678.1268212263, 5437956.05416451], [323075.4336759561, 5437889.640751129], [323001.00459137175, 5438272.032294986], [322796.16375333746, 5438250.825848085]]], "wind": {"speed_z": 0.0, "direction": -42.463565826416016, "speed": 1.3502626419067383}}
{"events_within": [], "attitude": {"yaw": 1.5390769243240356, "roll": 0.6313905119895935, "pitch": -0.03074732795357704}, "target": {"y": 5438126.7731425185, "x": 322807.6309452362, "mutex": 1.0, "num_wp": 3.0}, "timestamp": 1601912495, "velocity": {"y": -0.64, "x": 22.5}, "target_dir": {"y": 178.47047353896778, "x": -64.36924569029361}, "position": {"y": 5438221.21234806, "x": 322684.8247832076, "alt": 100.866, "zone": 19.0}, "altitude": 100.866, "nofly": [[[322796.16375333746, 5438250.825848085], [322678.1268212263, 5437956.05416451], [323075.4336759561, 5437889.640751129], [323001.00459137175, 5438272.032294986], [322796.16375333746, 5438250.825848085]]], "wind": {"speed_z": 0.0, "direction": -37.09225845336914, "speed": 1.299094796180725}}
